{
  "cities": [
    {"name": "São Paulo", "state": "SP", "lat": -23.5505, "lng": -46.6333},
    {"name": "Rio de Janeiro", "state": "RJ", "lat": -22.9068, "lng": -43.1729},
    {"name": "Brasília", "state": "DF", "lat": -15.7801, "lng": -47.9292},
    {"name": "Salvador", "state": "BA", "lat": -12.9714, "lng": -38.5014},
    {"name": "Fortaleza", "state": "CE", "lat": -3.7172, "lng": -38.5433},
    {"name": "Belo Horizonte", "state": "MG", "lat": -19.9167, "lng": -43.9345},
    {"name": "Manaus", "state": "AM", "lat": -3.1190, "lng": -60.0217},
    {"name": "Curitiba", "state": "PR", "lat": -25.4284, "lng": -49.2733},
    {"name": "Recife", "state": "PE", "lat": -8.0476, "lng": -34.8770},
    {"name": "Porto Alegre", "state": "RS", "lat": -30.0346, "lng": -51.2177},
    {"name": "Belém", "state": "PA", "lat": -1.4558, "lng": -48.4902},
    {"name": "Goiânia", "state": "GO", "lat": -16.6869, "lng": -49.2648},
    {"name": "Guarulhos", "state": "SP", "lat": -23.4538, "lng": -46.5333},
    {"name": "Campinas", "state": "SP", "lat": -22.9099, "lng": -47.0626},
    {"name": "São Luís", "state": "MA", "lat": -2.5297, "lng": -44.3028},
    {"name": "São Gonçalo", "state": "RJ", "lat": -22.8268, "lng": -43.0634},
    {"name": "Maceió", "state": "AL", "lat": -9.6658, "lng": -35.7353},
    {"name": "Duque de Caxias", "state": "RJ", "lat": -22.7858, "lng": -43.3116},
    {"name": "Natal", "state": "RN", "lat": -5.7945, "lng": -35.2110},
    {"name": "Teresina", "state": "PI", "lat": -5.0892, "lng": -42.8019},
    {"name": "Campo Grande", "state": "MS", "lat": -20.4697, "lng": -54.6201},
    {"name": "São Bernardo do Campo", "state": "SP", "lat": -23.6914, "lng": -46.5646},
    {"name": "João Pessoa", "state": "PB", "lat": -7.1195, "lng": -34.8450},
    {"name": "Santo André", "state": "SP", "lat": -23.6737, "lng": -46.5432},
    {"name": "Osasco", "state": "SP", "lat": -23.5325, "lng": -46.7917},
    {"name": "Ribeirão Preto", "state": "SP", "lat": -21.1775, "lng": -47.8103},
    {"name": "Uberlândia", "state": "MG", "lat": -18.9186, "lng": -48.2772},
    {"name": "Contagem", "state": "MG", "lat": -19.9318, "lng": -44.0539},
    {"name": "Sorocaba", "state": "SP", "lat": -23.5015, "lng": -47.4526},
    {"name": "Aracaju", "state": "SE", "lat": -10.9472, "lng": -37.0731},
    {"name": "Feira de Santana", "state": "BA", "lat": -12.2664, "lng": -38.9663},
    {"name": "Cuiabá", "state": "MT", "lat": -15.6014, "lng": -56.0979},
    {"name": "Joinville", "state": "SC", "lat": -26.3045, "lng": -48.8487},
    {"name": "Juiz de Fora", "state": "MG", "lat": -21.7642, "lng": -43.3503},
    {"name": "Londrina", "state": "PR", "lat": -23.3045, "lng": -51.1696},
    {"name": "Aparecida de Goiânia", "state": "GO", "lat": -16.8198, "lng": -49.2469},
    {"name": "Niterói", "state": "RJ", "lat": -22.8833, "lng": -43.1036},
    {"name": "Porto Velho", "state": "RO", "lat": -8.7612, "lng": -63.9004},
    {"name": "Ananindeua", "state": "PA", "lat": -1.3658, "lng": -48.3722},
    {"name": "Serra", "state": "ES", "lat": -20.1286, "lng": -40.3075},
    {"name": "Belford Roxo", "state": "RJ", "lat": -22.7642, "lng": -43.3992},
    {"name": "Caxias do Sul", "state": "RS", "lat": -29.1634, "lng": -51.1797},
    {"name": "Campos dos Goytacazes", "state": "RJ", "lat": -21.7545, "lng": -41.3244},
    {"name": "Florianópolis", "state": "SC", "lat": -27.5954, "lng": -48.5480},
    {"name": "São José do Rio Preto", "state": "SP", "lat": -20.8113, "lng": -49.3758},
    {"name": "Mauá", "state": "SP", "lat": -23.6678, "lng": -46.4614},
    {"name": "Betim", "state": "MG", "lat": -19.9678, "lng": -44.1981},
    {"name": "Vila Velha", "state": "ES", "lat": -20.3297, "lng": -40.2925},
    {"name": "São José dos Campos", "state": "SP", "lat": -23.2237, "lng": -45.9009},
    {"name": "Santos", "state": "SP", "lat": -23.9608, "lng": -46.3336},
    {"name": "Vitória", "state": "ES", "lat": -20.2976, "lng": -40.2958},
    {"name": "Diadema", "state": "SP", "lat": -23.6816, "lng": -46.6205},
    {"name": "Maringá", "state": "PR", "lat": -23.4205, "lng": -51.9333},
    {"name": "Carapicuíba", "state": "SP", "lat": -23.5225, "lng": -46.8358},
    {"name": "Nova Iguaçu", "state": "RJ", "lat": -22.7556, "lng": -43.4603},
    {"name": "Piracicaba", "state": "SP", "lat": -22.7255, "lng": -47.6492},
    {"name": "Cariacica", "state": "ES", "lat": -20.2635, "lng": -40.4165},
    {"name": "Montes Claros", "state": "MG", "lat": -16.7350, "lng": -43.8617},
    {"name": "Bauru", "state": "SP", "lat": -22.3246, "lng": -49.0871},
    {"name": "Ponta Grossa", "state": "PR", "lat": -25.0945, "lng": -50.1633},
    {"name": "Anápolis", "state": "GO", "lat": -16.3281, "lng": -48.9534},
    {"name": "Rio Branco", "state": "AC", "lat": -9.9747, "lng": -67.8249},
    {"name": "Pelotas", "state": "RS", "lat": -31.7654, "lng": -52.3376},
    {"name": "Vitória da Conquista", "state": "BA", "lat": -14.8619, "lng": -40.8389},
    {"name": "Canoas", "state": "RS", "lat": -29.9178, "lng": -51.1839},
    {"name": "Caucaia", "state": "CE", "lat": -3.7361, "lng": -38.6531},
    {"name": "Franca", "state": "SP", "lat": -20.5386, "lng": -47.4008},
    {"name": "Caruaru", "state": "PE", "lat": -8.2760, "lng": -35.9819},
    {"name": "Paulista", "state": "PE", "lat": -7.9406, "lng": -34.8728},
    {"name": "Petrolina", "state": "PE", "lat": -9.3891, "lng": -40.5027},
    {"name": "Blumenau", "state": "SC", "lat": -26.9194, "lng": -49.0661},
    {"name": "Jundiaí", "state": "SP", "lat": -23.1857, "lng": -46.8978},
    {"name": "Olinda", "state": "PE", "lat": -8.0089, "lng": -34.8553},
    {"name": "Praia Grande", "state": "SP", "lat": -24.0058, "lng": -46.4022},
    {"name": "Macapá", "state": "AP", "lat": 0.0356, "lng": -51.0705},
    {"name": "Itaquaquecetuba", "state": "SP", "lat": -23.4862, "lng": -46.3486},
    {"name": "Boa Vista", "state": "RR", "lat": 2.8235, "lng": -60.6758},
    {"name": "Cascavel", "state": "PR", "lat": -24.9578, "lng": -53.4595},
    {"name": "São José", "state": "SC", "lat": -27.6136, "lng": -48.6366},
    {"name": "Limeira", "state": "SP", "lat": -22.5640, "lng": -47.4017},
    {"name": "Taubaté", "state": "SP", "lat": -23.0262, "lng": -45.5556},
    {"name": "Palmas", "state": "TO", "lat": -10.2491, "lng": -48.3243},
    {"name": "Santa Maria", "state": "RS", "lat": -29.6868, "lng": -53.8149},
    {"name": "Foz do Iguaçu", "state": "PR", "lat": -25.5478, "lng": -54.5882},
    {"name": "Suzano", "state": "SP", "lat": -23.5424, "lng": -46.3108},
    {"name": "Imperatriz", "state": "MA", "lat": -5.5264, "lng": -47.4916},
    {"name": "Governador Valadares", "state": "MG", "lat": -18.8509, "lng": -41.9541},
    {"name": "Gravataí", "state": "RS", "lat": -29.9435, "lng": -50.9918},
    {"name": "Mossoró", "state": "RN", "lat": -5.1878, "lng": -37.3441},
    {"name": "Volta Redonda", "state": "RJ", "lat": -22.5202, "lng": -44.1042},
    {"name": "Taboão da Serra", "state": "SP", "lat": -23.6219, "lng": -46.7583},
    {"name": "Embu das Artes", "state": "SP", "lat": -23.6492, "lng": -46.8525},
    {"name": "Várzea Grande", "state": "MT", "lat": -15.6469, "lng": -56.1322},
    {"name": "Marabá", "state": "PA", "lat": -5.3686, "lng": -49.1178},
    {"name": "Novo Hamburgo", "state": "RS", "lat": -29.6878, "lng": -51.1306},
    {"name": "Parnaíba", "state": "PI", "lat": -2.9055, "lng": -41.7769},
    {"name": "Ipatinga", "state": "MG", "lat": -19.4687, "lng": -42.5366},
    {"name": "Juazeiro do Norte", "state": "CE", "lat": -7.2131, "lng": -39.3153},
    {"name": "Uberaba", "state": "MG", "lat": -19.7480, "lng": -47.9319},
    {"name": "Sumaré", "state": "SP", "lat": -22.8215, "lng": -47.2669},
    {"name": "Magé", "state": "RJ", "lat": -22.6528, "lng": -43.0394},
    {"name": "Barueri", "state": "SP", "lat": -23.5057, "lng": -46.8764},
    {"name": "Americana", "state": "SP", "lat": -22.7394, "lng": -47.3303},
    {"name": "Marília", "state": "SP", "lat": -22.2140, "lng": -49.9458},
    {"name": "São Leopoldo", "state": "RS", "lat": -29.7545, "lng": -51.1500},
    {"name": "Divinópolis", "state": "MG", "lat": -20.1389, "lng": -44.8833},
    {"name": "Itajaí", "state": "SC", "lat": -26.9078, "lng": -48.6619},
    {"name": "Presidente Prudente", "state": "SP", "lat": -22.1207, "lng": -51.3882},
    {"name": "Jacareí", "state": "SP", "lat": -23.2983, "lng": -45.9658},
    {"name": "Hortolândia", "state": "SP", "lat": -22.8584, "lng": -47.2200},
    {"name": "Sete Lagoas", "state": "MG", "lat": -19.4658, "lng": -44.2469},
    {"name": "Rio Verde", "state": "GO", "lat": -17.7928, "lng": -50.9192},
    {"name": "Viamão", "state": "RS", "lat": -30.0811, "lng": -51.0233},
    {"name": "Cotia", "state": "SP", "lat": -23.6040, "lng": -46.9192},
    {"name": "São Carlos", "state": "SP", "lat": -22.0175, "lng": -47.8908},
    {"name": "Araraquara", "state": "SP", "lat": -21.7845, "lng": -48.1749},
    {"name": "Indaiatuba", "state": "SP", "lat": -23.0903, "lng": -47.2181},
    {"name": "Chapecó", "state": "SC", "lat": -27.0963, "lng": -52.6158},
    {"name": "Criciúma", "state": "SC", "lat": -28.6775, "lng": -49.3697},
    {"name": "Itabuna", "state": "BA", "lat": -14.7876, "lng": -39.2781},
    {"name": "Paranaguá", "state": "PR", "lat": -25.5205, "lng": -48.5095},
    {"name": "Ilhéus", "state": "BA", "lat": -14.7886, "lng": -39.0464},
    {"name": "Lauro de Freitas", "state": "BA", "lat": -12.8978, "lng": -38.3272},
    {"name": "Jequié", "state": "BA", "lat": -13.8578, "lng": -40.0836},
    {"name": "Alagoinhas", "state": "BA", "lat": -12.1358, "lng": -38.4197},
    {"name": "Teixeira de Freitas", "state": "BA", "lat": -17.5392, "lng": -39.7428},
    {"name": "Barreiras", "state": "BA", "lat": -12.1528, "lng": -44.9900},
    {"name": "Porto Seguro", "state": "BA", "lat": -16.4435, "lng": -39.0647},
    {"name": "Simões Filho", "state": "BA", "lat": -12.7839, "lng": -38.4039},
    {"name": "Paulo Afonso", "state": "BA", "lat": -9.4008, "lng": -38.2147},
    {"name": "Eunápolis", "state": "BA", "lat": -16.3778, "lng": -39.5803},
    {"name": "Juazeiro", "state": "BA", "lat": -9.4164, "lng": -40.5003},
    {"name": "Cabo Frio", "state": "RJ", "lat": -22.8894, "lng": -42.0286},
    {"name": "Angra dos Reis", "state": "RJ", "lat": -23.0067, "lng": -44.3181},
    {"name": "Macaé", "state": "RJ", "lat": -22.3708, "lng": -41.7869},
    {"name": "Itaboraí", "state": "RJ", "lat": -22.7447, "lng": -42.8592},
    {"name": "Petrópolis", "state": "RJ", "lat": -22.5050, "lng": -43.1786},
    {"name": "Teresópolis", "state": "RJ", "lat": -22.4119, "lng": -42.9858},
    {"name": "Búzios", "state": "RJ", "lat": -22.7469, "lng": -41.8817},
    {"name": "Paraty", "state": "RJ", "lat": -23.2178, "lng": -44.7131},
    {"name": "Nova Friburgo", "state": "RJ", "lat": -22.2819, "lng": -42.5311},
    {"name": "Resende", "state": "RJ", "lat": -22.4686, "lng": -44.4467},
    {"name": "Barra Mansa", "state": "RJ", "lat": -22.5442, "lng": -44.1714},
    {"name": "São João de Meriti", "state": "RJ", "lat": -22.8039, "lng": -43.3722},
    {"name": "Mesquita", "state": "RJ", "lat": -22.8022, "lng": -43.4600},
    {"name": "Nilópolis", "state": "RJ", "lat": -22.8058, "lng": -43.4172},
    {"name": "Queimados", "state": "RJ", "lat": -22.7108, "lng": -43.5519},
    {"name": "Itaperuna", "state": "RJ", "lat": -21.2050, "lng": -41.8878},
    {"name": "Poços de Caldas", "state": "MG", "lat": -21.7878, "lng": -46.5617},
    {"name": "Patos de Minas", "state": "MG", "lat": -18.5789, "lng": -46.5181},
    {"name": "Pouso Alegre", "state": "MG", "lat": -22.2300, "lng": -45.9369},
    {"name": "Barbacena", "state": "MG", "lat": -21.2258, "lng": -43.7711},
    {"name": "Araguari", "state": "MG", "lat": -18.6486, "lng": -48.1867},
    {"name": "Teófilo Otoni", "state": "MG", "lat": -17.8575, "lng": -41.5050},
    {"name": "Conselheiro Lafaiete", "state": "MG", "lat": -20.6603, "lng": -43.7856},
    {"name": "Varginha", "state": "MG", "lat": -21.5514, "lng": -45.4303},
    {"name": "Passos", "state": "MG", "lat": -20.7189, "lng": -46.6097},
    {"name": "Muriaé", "state": "MG", "lat": -21.1306, "lng": -42.3664},
    {"name": "Itajubá", "state": "MG", "lat": -22.4256, "lng": -45.4528},
    {"name": "Lavras", "state": "MG", "lat": -21.2450, "lng": -45.0000},
    {"name": "Ouro Preto", "state": "MG", "lat": -20.3856, "lng": -43.5036},
    {"name": "Sabará", "state": "MG", "lat": -19.8867, "lng": -43.8072},
    {"name": "Ribeirão das Neves", "state": "MG", "lat": -19.7669, "lng": -44.0867},
    {"name": "Santa Luzia", "state": "MG", "lat": -19.7697, "lng": -43.8514},
    {"name": "Tiradentes", "state": "MG", "lat": -21.1128, "lng": -44.1706},
    {"name": "Diamantina", "state": "MG", "lat": -18.2494, "lng": -43.6003},
    {"name": "São João del-Rei", "state": "MG", "lat": -21.1356, "lng": -44.2617},
    {"name": "Valinhos", "state": "SP", "lat": -22.9706, "lng": -46.9958},
    {"name": "Atibaia", "state": "SP", "lat": -23.1172, "lng": -46.5506},
    {"name": "Bragança Paulista", "state": "SP", "lat": -22.9517, "lng": -46.5419},
    {"name": "Guarujá", "state": "SP", "lat": -23.9933, "lng": -46.2567},
    {"name": "Cubatão", "state": "SP", "lat": -23.8953, "lng": -46.4253},
    {"name": "São Vicente", "state": "SP", "lat": -23.9631, "lng": -46.3922},
    {"name": "Bertioga", "state": "SP", "lat": -23.8544, "lng": -46.1386},
    {"name": "Mongaguá", "state": "SP", "lat": -24.0869, "lng": -46.6214},
    {"name": "Itanhaém", "state": "SP", "lat": -24.1833, "lng": -46.7889},
    {"name": "Peruíbe", "state": "SP", "lat": -24.3219, "lng": -47.0011},
    {"name": "Registro", "state": "SP", "lat": -24.4878, "lng": -47.8436},
    {"name": "Iguape", "state": "SP", "lat": -24.7081, "lng": -47.5553},
    {"name": "Cananéia", "state": "SP", "lat": -25.0147, "lng": -47.9267},
    {"name": "Ilha Comprida", "state": "SP", "lat": -24.7278, "lng": -47.5350},
    {"name": "Ubatuba", "state": "SP", "lat": -23.4339, "lng": -45.0711},
    {"name": "Caraguatatuba", "state": "SP", "lat": -23.6203, "lng": -45.4128},
    {"name": "São Sebastião", "state": "SP", "lat": -23.8060, "lng": -45.4097},
    {"name": "Ilhabela", "state": "SP", "lat": -23.7781, "lng": -45.3581},
    {"name": "Campos do Jordão", "state": "SP", "lat": -22.7392, "lng": -45.5914},
    {"name": "São Roque", "state": "SP", "lat": -23.5289, "lng": -47.1356},
    {"name": "Itu", "state": "SP", "lat": -23.2642, "lng": -47.2992},
    {"name": "Salto", "state": "SP", "lat": -23.2003, "lng": -47.2928},
    {"name": "Vinhedo", "state": "SP", "lat": -23.0297, "lng": -46.9756},
    {"name": "Itatiba", "state": "SP", "lat": -23.0058, "lng": -46.8389},
    {"name": "Amparo", "state": "SP", "lat": -22.7011, "lng": -46.7647},
    {"name": "Serra Negra", "state": "SP", "lat": -22.6128, "lng": -46.7006},
    {"name": "Águas de Lindóia", "state": "SP", "lat": -22.4764, "lng": -46.6317},
    {"name": "Lindóia", "state": "SP", "lat": -22.5219, "lng": -46.6500},
    {"name": "Socorro", "state": "SP", "lat": -22.5908, "lng": -46.5289},
    {"name": "Monte Alegre do Sul", "state": "SP", "lat": -22.6828, "lng": -46.6806},
    {"name": "Holambra", "state": "SP", "lat": -22.6339, "lng": -47.0558},
    {"name": "Artur Nogueira", "state": "SP", "lat": -22.5733, "lng": -47.1725},
    {"name": "Mogi Guaçu", "state": "SP", "lat": -22.3722, "lng": -46.9428},
    {"name": "Mogi Mirim", "state": "SP", "lat": -22.4322, "lng": -46.9578},
    {"name": "Rio Claro", "state": "SP", "lat": -22.4108, "lng": -47.5614},
    {"name": "São Pedro", "state": "SP", "lat": -22.5489, "lng": -47.9089},
    {"name": "Águas de São Pedro", "state": "SP", "lat": -22.6003, "lng": -47.8733},
    {"name": "Brotas", "state": "SP", "lat": -22.2847, "lng": -48.1256},
    {"name": "Itirapina", "state": "SP", "lat": -22.2536, "lng": -47.8236},
    {"name": "Analândia", "state": "SP", "lat": -22.1306, "lng": -47.6622},
    {"name": "Ipeúna", "state": "SP", "lat": -22.4361, "lng": -47.7178},
    {"name": "Charqueada", "state": "SP", "lat": -22.5092, "lng": -47.7761},
    {"name": "Santa Bárbara d'Oeste", "state": "SP", "lat": -22.7550, "lng": -47.4147},
    {"name": "Nova Odessa", "state": "SP", "lat": -22.7783, "lng": -47.2947},
    {"name": "Paulínia", "state": "SP", "lat": -22.7611, "lng": -47.1542},
    {"name": "Cosmópolis", "state": "SP", "lat": -22.6458, "lng": -47.1961},
    {"name": "Jaguariúna", "state": "SP", "lat": -22.7050, "lng": -46.9858},
    {"name": "Pedreira", "state": "SP", "lat": -22.7417, "lng": -46.8950},
    {"name": "São José dos Pinhais", "state": "PR", "lat": -25.5350, "lng": -49.2064},
    {"name": "Colombo", "state": "PR", "lat": -25.2917, "lng": -49.2236},
    {"name": "Araucária", "state": "PR", "lat": -25.5928, "lng": -49.4103},
    {"name": "Piraquara", "state": "PR", "lat": -25.4422, "lng": -49.0631},
    {"name": "Campo Largo", "state": "PR", "lat": -25.4597, "lng": -49.5286},
    {"name": "Almirante Tamandaré", "state": "PR", "lat": -25.3261, "lng": -49.3039},
    {"name": "Guarapuava", "state": "PR", "lat": -25.3903, "lng": -51.4564},
    {"name": "Toledo", "state": "PR", "lat": -24.7253, "lng": -53.7433},
    {"name": "Apucarana", "state": "PR", "lat": -23.5508, "lng": -51.4608},
    {"name": "Umuarama", "state": "PR", "lat": -23.7664, "lng": -53.3250},
    {"name": "Cambé", "state": "PR", "lat": -23.2767, "lng": -51.2786},
    {"name": "Arapongas", "state": "PR", "lat": -23.4225, "lng": -51.4256},
    {"name": "Paranavaí", "state": "PR", "lat": -23.0733, "lng": -52.4650},
    {"name": "Pinhais", "state": "PR", "lat": -25.4442, "lng": -49.1925},
    {"name": "Francisco Beltrão", "state": "PR", "lat": -26.0781, "lng": -53.0522},
    {"name": "Pato Branco", "state": "PR", "lat": -26.2286, "lng": -52.6708},
    {"name": "Sarandi", "state": "PR", "lat": -23.4442, "lng": -51.8739},
    {"name": "Campo Mourão", "state": "PR", "lat": -24.0456, "lng": -52.3831},
    {"name": "Lages", "state": "SC", "lat": -27.8161, "lng": -50.3261},
    {"name": "Balneário Camboriú", "state": "SC", "lat": -26.9906, "lng": -48.6347},
    {"name": "Brusque", "state": "SC", "lat": -27.0978, "lng": -48.9175},
    {"name": "Palhoça", "state": "SC", "lat": -27.6456, "lng": -48.6678},
    {"name": "Jaraguá do Sul", "state": "SC", "lat": -26.4853, "lng": -49.0686},
    {"name": "Tubarão", "state": "SC", "lat": -28.4669, "lng": -49.0069},
    {"name": "São Bento do Sul", "state": "SC", "lat": -26.2508, "lng": -49.3789},
    {"name": "Itajaí", "state": "SC", "lat": -26.9078, "lng": -48.6619},
    {"name": "Caçador", "state": "SC", "lat": -26.7758, "lng": -51.0125},
    {"name": "Concórdia", "state": "SC", "lat": -27.2344, "lng": -52.0278},
    {"name": "Camboriú", "state": "SC", "lat": -27.0253, "lng": -48.6522},
    {"name": "Biguaçu", "state": "SC", "lat": -27.4939, "lng": -48.6556},
    {"name": "Gaspar", "state": "SC", "lat": -26.9311, "lng": -48.9583},
    {"name": "Navegantes", "state": "SC", "lat": -26.8986, "lng": -48.6544},
    {"name": "Mafra", "state": "SC", "lat": -26.1111, "lng": -49.8053},
    {"name": "Rio do Sul", "state": "SC", "lat": -27.2142, "lng": -49.6431},
    {"name": "Araranguá", "state": "SC", "lat": -28.9353, "lng": -49.4911},
    {"name": "Içara", "state": "SC", "lat": -28.7136, "lng": -49.3069},
    {"name": "Indaial", "state": "SC", "lat": -26.8978, "lng": -49.2317},
    {"name": "Imbituba", "state": "SC", "lat": -28.2331, "lng": -48.6706},
    {"name": "Laguna", "state": "SC", "lat": -28.4828, "lng": -48.7819},
    {"name": "Garopaba", "state": "SC", "lat": -28.0275, "lng": -48.6189},
    {"name": "Bombinhas", "state": "SC", "lat": -27.1347, "lng": -48.5147},
    {"name": "Porto Belo", "state": "SC", "lat": -27.1589, "lng": -48.5469},
    {"name": "Itapema", "state": "SC", "lat": -27.0900, "lng": -48.6108},
    {"name": "Penha", "state": "SC", "lat": -26.7700, "lng": -48.6458},
    {"name": "Piçarras", "state": "SC", "lat": -26.7611, "lng": -48.6781},
    {"name": "Gravatal", "state": "SC", "lat": -28.3206, "lng": -49.0428},
    {"name": "São Joaquim", "state": "SC", "lat": -28.2944, "lng": -49.9319},
    {"name": "Urubici", "state": "SC", "lat": -28.0147, "lng": -49.5917},
    {"name": "Bom Jardim da Serra", "state": "SC", "lat": -28.3392, "lng": -49.6350},
    {"name": "Uruguaiana", "state": "RS", "lat": -29.7547, "lng": -57.0883},
    {"name": "Bagé", "state": "RS", "lat": -31.3289, "lng": -54.1069},
    {"name": "Rio Grande", "state": "RS", "lat": -32.0350, "lng": -52.0986},
    {"name": "Passo Fundo", "state": "RS", "lat": -28.2622, "lng": -52.4083},
    {"name": "Alvorada", "state": "RS", "lat": -29.9903, "lng": -51.0814},
    {"name": "Cachoeirinha", "state": "RS", "lat": -29.9511, "lng": -51.0939},
    {"name": "Esteio", "state": "RS", "lat": -29.8614, "lng": -51.1792},
    {"name": "Sapucaia do Sul", "state": "RS", "lat": -29.8278, "lng": -51.1456},
    {"name": "Erechim", "state": "RS", "lat": -27.6342, "lng": -52.2739},
    {"name": "Bento Gonçalves", "state": "RS", "lat": -29.1697, "lng": -51.5186},
    {"name": "Santa Cruz do Sul", "state": "RS", "lat": -29.7175, "lng": -52.4258},
    {"name": "Cachoeira do Sul", "state": "RS", "lat": -30.0389, "lng": -52.8936},
    {"name": "Guaíba", "state": "RS", "lat": -30.1139, "lng": -51.3253},
    {"name": "Ijuí", "state": "RS", "lat": -28.3878, "lng": -53.9147},
    {"name": "Cruz Alta", "state": "RS", "lat": -28.6386, "lng": -53.6064},
    {"name": "Santo Ângelo", "state": "RS", "lat": -28.2994, "lng": -54.2631},
    {"name": "Lajeado", "state": "RS", "lat": -29.4669, "lng": -51.9617},
    {"name": "Torres", "state": "RS", "lat": -29.3353, "lng": -49.7264},
    {"name": "Tramandaí", "state": "RS", "lat": -29.9853, "lng": -50.1331},
    {"name": "Capão da Canoa", "state": "RS", "lat": -29.7456, "lng": -50.0097},
    {"name": "Osório", "state": "RS", "lat": -29.8867, "lng": -50.2703},
    {"name": "Xangri-lá", "state": "RS", "lat": -29.8056, "lng": -50.0519},
    {"name": "Imbé", "state": "RS", "lat": -29.9747, "lng": -50.1286},
    {"name": "Cidreira", "state": "RS", "lat": -30.1756, "lng": -50.2122},
    {"name": "Gramado", "state": "RS", "lat": -29.3792, "lng": -50.8756},
    {"name": "Canela", "state": "RS", "lat": -29.3656, "lng": -50.8119},
    {"name": "São Francisco de Paula", "state": "RS", "lat": -29.4472, "lng": -50.5831},
    {"name": "Cambará do Sul", "state": "RS", "lat": -29.0489, "lng": -50.1447},
    {"name": "Garibaldi", "state": "RS", "lat": -29.2561, "lng": -51.5336},
    {"name": "Carlos Barbosa", "state": "RS", "lat": -29.2975, "lng": -51.5003},
    {"name": "Farroupilha", "state": "RS", "lat": -29.2250, "lng": -51.3478},
    {"name": "Flores da Cunha", "state": "RS", "lat": -29.0278, "lng": -51.1817},
    {"name": "São Marcos", "state": "RS", "lat": -28.9694, "lng": -51.0683},
    {"name": "Veranópolis", "state": "RS", "lat": -28.9392, "lng": -51.5517},
    {"name": "Nova Prata", "state": "RS", "lat": -28.7833, "lng": -51.6111},
    {"name": "Vacaria", "state": "RS", "lat": -28.7556, "lng": -50.7069},
    {"name": "Corumbá", "state": "MS", "lat": -19.0092, "lng": -57.6508},
    {"name": "Três Lagoas", "state": "MS", "lat": -20.7511, "lng": -51.6783},
    {"name": "Dourados", "state": "MS", "lat": -22.2211, "lng": -54.8056},
    {"name": "Ponta Porã", "state": "MS", "lat": -22.5358, "lng": -55.7256},
    {"name": "Naviraí", "state": "MS", "lat": -23.0658, "lng": -54.1906},
    {"name": "Aquidauana", "state": "MS", "lat": -20.4711, "lng": -55.7867},
    {"name": "Bonito", "state": "MS", "lat": -21.1264, "lng": -56.4847},
    {"name": "Miranda", "state": "MS", "lat": -20.2406, "lng": -56.3781},
    {"name": "Rondonópolis", "state": "MT", "lat": -16.4708, "lng": -54.6356},
    {"name": "Sinop", "state": "MT", "lat": -11.8642, "lng": -55.5097},
    {"name": "Tangará da Serra", "state": "MT", "lat": -14.6228, "lng": -57.4989},
    {"name": "Cáceres", "state": "MT", "lat": -16.0733, "lng": -57.6792},
    {"name": "Sorriso", "state": "MT", "lat": -12.5425, "lng": -55.7111},
    {"name": "Lucas do Rio Verde", "state": "MT", "lat": -13.0500, "lng": -55.9108},
    {"name": "Primavera do Leste", "state": "MT", "lat": -15.5608, "lng": -54.2958},
    {"name": "Alta Floresta", "state": "MT", "lat": -9.8756, "lng": -56.0861},
    {"name": "Barra do Garças", "state": "MT", "lat": -15.8908, "lng": -52.2567},
    {"name": "Chapada dos Guimarães", "state": "MT", "lat": -15.4617, "lng": -55.7500},
    {"name": "Poconé", "state": "MT", "lat": -16.2564, "lng": -56.6236},
    {"name": "Nobres", "state": "MT", "lat": -14.7294, "lng": -56.3289},
    {"name": "Luziânia", "state": "GO", "lat": -16.2528, "lng": -47.9500},
    {"name": "Águas Lindas de Goiás", "state": "GO", "lat": -15.7678, "lng": -48.2811},
    {"name": "Valparaíso de Goiás", "state": "GO", "lat": -16.0678, "lng": -47.9758},
    {"name": "Trindade", "state": "GO", "lat": -16.6514, "lng": -49.4897},
    {"name": "Formosa", "state": "GO", "lat": -15.5372, "lng": -47.3342},
    {"name": "Senador Canedo", "state": "GO", "lat": -16.7078, "lng": -49.0919},
    {"name": "Itumbiara", "state": "GO", "lat": -18.4192, "lng": -49.2156},
    {"name": "Catalão", "state": "GO", "lat": -18.1661, "lng": -47.9464},
    {"name": "Jataí", "state": "GO", "lat": -17.8822, "lng": -51.7142},
    {"name": "Caldas Novas", "state": "GO", "lat": -17.7442, "lng": -48.6256},
    {"name": "Rio Quente", "state": "GO", "lat": -17.7747, "lng": -48.7706},
    {"name": "Pirenópolis", "state": "GO", "lat": -15.8511, "lng": -48.9592},
    {"name": "Alto Paraíso de Goiás", "state": "GO", "lat": -14.1303, "lng": -47.5108},
    {"name": "Cavalcante", "state": "GO", "lat": -13.7975, "lng": -47.4572},
    {"name": "São Jorge", "state": "GO", "lat": -14.1764, "lng": -47.5178},
    {"name": "Colinas do Tocantins", "state": "TO", "lat": -8.0586, "lng": -48.4756},
    {"name": "Araguaína", "state": "TO", "lat": -7.1911, "lng": -48.2072},
    {"name": "Gurupi", "state": "TO", "lat": -11.7289, "lng": -49.0686},
    {"name": "Paraíso do Tocantins", "state": "TO", "lat": -10.1750, "lng": -48.8828},
    {"name": "Porto Nacional", "state": "TO", "lat": -10.7081, "lng": -48.4172},
    {"name": "Jalapão", "state": "TO", "lat": -10.2667, "lng": -46.8333},
    {"name": "Mateiros", "state": "TO", "lat": -10.5458, "lng": -46.4189},
    {"name": "Santarém", "state": "PA", "lat": -2.4389, "lng": -54.6989},
    {"name": "Parauapebas", "state": "PA", "lat": -6.0678, "lng": -49.9036},
    {"name": "Castanhal", "state": "PA", "lat": -1.2939, "lng": -47.9261},
    {"name": "Altamira", "state": "PA", "lat": -3.2031, "lng": -52.2108},
    {"name": "Itaituba", "state": "PA", "lat": -4.2761, "lng": -55.9836},
    {"name": "Barcarena", "state": "PA", "lat": -1.5058, "lng": -48.6197},
    {"name": "Bragança", "state": "PA", "lat": -1.0536, "lng": -46.7656},
    {"name": "Tucuruí", "state": "PA", "lat": -3.7658, "lng": -49.6767},
    {"name": "Salinópolis", "state": "PA", "lat": -0.6136, "lng": -47.3567},
    {"name": "Alter do Chão", "state": "PA", "lat": -2.5017, "lng": -54.9500},
    {"name": "Soure", "state": "PA", "lat": -0.7167, "lng": -48.5228},
    {"name": "Salvaterra", "state": "PA", "lat": -0.7525, "lng": -48.5156},
    {"name": "Algodoal", "state": "PA", "lat": -0.5964, "lng": -47.6022},
    {"name": "Bacabal", "state": "MA", "lat": -4.2242, "lng": -44.7836},
    {"name": "Caxias", "state": "MA", "lat": -4.8586, "lng": -43.3561},
    {"name": "Codó", "state": "MA", "lat": -4.4550, "lng": -43.8856},
    {"name": "Timon", "state": "MA", "lat": -5.0939, "lng": -42.8367},
    {"name": "Açailândia", "state": "MA", "lat": -4.9469, "lng": -47.5044},
    {"name": "Santa Inês", "state": "MA", "lat": -3.6664, "lng": -45.3800},
    {"name": "Barreirinhas", "state": "MA", "lat": -2.7578, "lng": -42.8258},
    {"name": "Atins", "state": "MA", "lat": -2.5533, "lng": -42.7544},
    {"name": "São Raimundo Nonato", "state": "PI", "lat": -9.0153, "lng": -42.6989},
    {"name": "Floriano", "state": "PI", "lat": -6.7678, "lng": -43.0225},
    {"name": "Picos", "state": "PI", "lat": -7.0767, "lng": -41.4669},
    {"name": "Piripiri", "state": "PI", "lat": -4.2722, "lng": -41.7767},
    {"name": "Pedro II", "state": "PI", "lat": -4.4261, "lng": -41.4572},
    {"name": "Serra da Capivara", "state": "PI", "lat": -8.8333, "lng": -42.5500},
    {"name": "Delta do Parnaíba", "state": "PI", "lat": -2.8333, "lng": -41.7667},
    {"name": "Sobral", "state": "CE", "lat": -3.6861, "lng": -40.3506},
    {"name": "Maracanaú", "state": "CE", "lat": -3.8769, "lng": -38.6256},
    {"name": "Crato", "state": "CE", "lat": -7.2344, "lng": -39.4108},
    {"name": "Itapipoca", "state": "CE", "lat": -3.4936, "lng": -39.5789},
    {"name": "Iguatu", "state": "CE", "lat": -6.3614, "lng": -39.2986},
    {"name": "Quixadá", "state": "CE", "lat": -4.9711, "lng": -39.0147},
    {"name": "Canoa Quebrada", "state": "CE", "lat": -4.4250, "lng": -37.7039},
    {"name": "Jericoacoara", "state": "CE", "lat": -2.7942, "lng": -40.5139},
    {"name": "Aracati", "state": "CE", "lat": -4.5619, "lng": -37.7697},
    {"name": "Guaramiranga", "state": "CE", "lat": -4.2639, "lng": -38.9319},
    {"name": "Cumbuco", "state": "CE", "lat": -3.6261, "lng": -38.7372},
    {"name": "Parnamirim", "state": "RN", "lat": -5.9158, "lng": -35.2628},
    {"name": "São Gonçalo do Amarante", "state": "RN", "lat": -5.7908, "lng": -35.3286},
    {"name": "Ceará-Mirim", "state": "RN", "lat": -5.6344, "lng": -35.4253},
    {"name": "Pipa", "state": "RN", "lat": -6.2278, "lng": -35.0583},
    {"name": "Tibau do Sul", "state": "RN", "lat": -6.1864, "lng": -35.0928},
    {"name": "Baía Formosa", "state": "RN", "lat": -6.3700, "lng": -35.0056},
    {"name": "São Miguel do Gostoso", "state": "RN", "lat": -5.1236, "lng": -35.6336},
    {"name": "Galinhos", "state": "RN", "lat": -5.0917, "lng": -36.2756},
    {"name": "Touros", "state": "RN", "lat": -5.1989, "lng": -35.4611},
    {"name": "Maxaranguape", "state": "RN", "lat": -5.5175, "lng": -35.2608},
    {"name": "Genipabu", "state": "RN", "lat": -5.6847, "lng": -35.2258},
    {"name": "Campina Grande", "state": "PB", "lat": -7.2306, "lng": -35.8811},
    {"name": "Patos", "state": "PB", "lat": -7.0244, "lng": -37.2747},
    {"name": "Santa Rita", "state": "PB", "lat": -7.1139, "lng": -34.9786},
    {"name": "Bayeux", "state": "PB", "lat": -7.1253, "lng": -34.9322},
    {"name": "Cabedelo", "state": "PB", "lat": -6.9808, "lng": -34.8339},
    {"name": "Conde", "state": "PB", "lat": -7.2589, "lng": -34.9072},
    {"name": "Tambaba", "state": "PB", "lat": -7.3772, "lng": -34.8000},
    {"name": "Japaratinga", "state": "AL", "lat": -9.0886, "lng": -35.2628},
    {"name": "Maragogi", "state": "AL", "lat": -9.0122, "lng": -35.2222},
    {"name": "São Miguel dos Milagres", "state": "AL", "lat": -9.2650, "lng": -35.3683},
    {"name": "Porto de Galinhas", "state": "PE", "lat": -8.5033, "lng": -35.0064},
    {"name": "Ipojuca", "state": "PE", "lat": -8.3978, "lng": -35.0636},
    {"name": "Tamandaré", "state": "PE", "lat": -8.7575, "lng": -35.1039},
    {"name": "Carneiros", "state": "PE", "lat": -8.7161, "lng": -35.0972},
    {"name": "Garanhuns", "state": "PE", "lat": -8.8906, "lng": -36.4928},
    {"name": "Gravatá", "state": "PE", "lat": -8.2047, "lng": -35.5650},
    {"name": "Serra Talhada", "state": "PE", "lat": -7.9856, "lng": -38.2950},
    {"name": "Arcoverde", "state": "PE", "lat": -8.4189, "lng": -37.0550},
    {"name": "Fernando de Noronha", "state": "PE", "lat": -3.8544, "lng": -32.4286},
    {"name": "Propriá", "state": "SE", "lat": -10.2128, "lng": -36.8422},
    {"name": "Estância", "state": "SE", "lat": -11.2678, "lng": -37.4386},
    {"name": "Itabaiana", "state": "SE", "lat": -10.6850, "lng": -37.4258},
    {"name": "Lagarto", "state": "SE", "lat": -10.9169, "lng": -37.6519},
    {"name": "Nossa Senhora do Socorro", "state": "SE", "lat": -10.8550, "lng": -37.1264},
    {"name": "Aracaju Praia", "state": "SE", "lat": -10.9911, "lng": -37.0431},
    {"name": "Guarapari", "state": "ES", "lat": -20.6733, "lng": -40.5003},
    {"name": "Linhares", "state": "ES", "lat": -19.3911, "lng": -40.0722},
    {"name": "Cachoeiro de Itapemirim", "state": "ES", "lat": -20.8489, "lng": -41.1128},
    {"name": "Colatina", "state": "ES", "lat": -19.5394, "lng": -40.6306},
    {"name": "São Mateus", "state": "ES", "lat": -18.7183, "lng": -39.8589},
    {"name": "Aracruz", "state": "ES", "lat": -19.8203, "lng": -40.2733},
    {"name": "Domingos Martins", "state": "ES", "lat": -20.3633, "lng": -40.6592},
    {"name": "Santa Teresa", "state": "ES", "lat": -19.9356, "lng": -40.6003},
    {"name": "Anchieta", "state": "ES", "lat": -20.8056, "lng": -40.6431},
    {"name": "Piúma", "state": "ES", "lat": -20.8358, "lng": -40.7289},
    {"name": "Marataízes", "state": "ES", "lat": -21.0433, "lng": -40.8325},
    {"name": "Itapemirim", "state": "ES", "lat": -21.0106, "lng": -40.8339},
    {"name": "Conceição da Barra", "state": "ES", "lat": -18.5922, "lng": -39.7347},
    {"name": "Praia da Costa", "state": "ES", "lat": -20.3333, "lng": -40.2833},
    {"name": "Ji-Paraná", "state": "RO", "lat": -10.8853, "lng": -61.9517},
    {"name": "Ariquemes", "state": "RO", "lat": -9.9133, "lng": -63.0408},
    {"name": "Vilhena", "state": "RO", "lat": -12.7406, "lng": -60.1433},
    {"name": "Cacoal", "state": "RO", "lat": -11.4386, "lng": -61.4472},
    {"name": "Guajará-Mirim", "state": "RO", "lat": -10.7831, "lng": -65.3289},
    {"name": "Jaru", "state": "RO", "lat": -10.4389, "lng": -62.4661},
    {"name": "Cruzeiro do Sul", "state": "AC", "lat": -7.6317, "lng": -72.6756},
    {"name": "Tarauacá", "state": "AC", "lat": -8.1603, "lng": -70.7650},
    {"name": "Sena Madureira", "state": "AC", "lat": -9.0658, "lng": -68.6572},
    {"name": "Feijó", "state": "AC", "lat": -8.1644, "lng": -70.3550},
    {"name": "Parintins", "state": "AM", "lat": -2.6286, "lng": -56.7358},
    {"name": "Itacoatiara", "state": "AM", "lat": -3.1428, "lng": -58.4442},
    {"name": "Manacapuru", "state": "AM", "lat": -3.2992, "lng": -60.6206},
    {"name": "Coari", "state": "AM", "lat": -4.0850, "lng": -63.1408},
    {"name": "Tabatinga", "state": "AM", "lat": -4.2525, "lng": -69.9386},
    {"name": "Tefé", "state": "AM", "lat": -3.3536, "lng": -64.7108},
    {"name": "São Gabriel da Cachoeira", "state": "AM", "lat": 0.1300, "lng": -67.0889},
    {"name": "Presidente Figueiredo", "state": "AM", "lat": -2.0331, "lng": -60.0256},
    {"name": "Novo Airão", "state": "AM", "lat": -2.6206, "lng": -60.9442},
    {"name": "Barcelos", "state": "AM", "lat": -0.9753, "lng": -62.9247},
    {"name": "Oiapoque", "state": "AP", "lat": 3.8414, "lng": -51.8331},
    {"name": "Santana", "state": "AP", "lat": -0.0586, "lng": -51.1722},
    {"name": "Laranjal do Jari", "state": "AP", "lat": -0.8044, "lng": -52.4536},
    {"name": "Mazagão", "state": "AP", "lat": -0.1150, "lng": -51.2892}
  ]
}
